[
  {"name": "Салон Т2 Саранск Центр",       "city": "Саранск",           "street": "ул. Советская",         "houseNumber": "35",  "lat": 54.1871, "lon": 45.1749, "time_window_start": "09:00", "time_window_end": "18:00", "priority": "high"},
  {"name": "Салон Т2 Пролетарская",         "city": "Саранск",           "street": "ул. Пролетарская",      "houseNumber": "46",  "lat": 54.1835, "lon": 45.1812, "time_window_start": "09:00", "time_window_end": "18:00", "priority": "high"},
  {"name": "Салон Т2 Проспект Ленина",      "city": "Саранск",           "street": "пр. Ленина",            "houseNumber": "15",  "lat": 54.1902, "lon": 45.1685, "time_window_start": "09:00", "time_window_end": "18:00", "priority": "high"},
  {"name": "Салон Т2 Светотехника",         "city": "Саранск",           "street": "ул. Светотехническая",  "houseNumber": "3",   "lat": 54.1756, "lon": 45.1834, "time_window_start": "09:00", "time_window_end": "18:00", "priority": "medium"},
  {"name": "Салон Т2 Московская",           "city": "Саранск",           "street": "ул. Московская",        "houseNumber": "12",  "lat": 54.1920, "lon": 45.1770, "time_window_start": "09:00", "time_window_end": "18:00", "priority": "medium"},
  {"name": "Салон Т2 Огарев Plaza",         "city": "Саранск",           "street": "ул. Большевистская",    "houseNumber": "84",  "lat": 54.1845, "lon": 45.1695, "time_window_start": "10:00", "time_window_end": "20:00", "priority": "high"},
  {"name": "Салон Т2 Мегафон Центр",        "city": "Саранск",           "street": "ул. Пролетарская",      "houseNumber": "104", "lat": 54.1888, "lon": 45.1801, "time_window_start": "09:00", "time_window_end": "18:00", "priority": "medium"},
  {"name": "Салон Т2 Коммунистическая",     "city": "Саранск",           "street": "ул. Коммунистическая",  "houseNumber": "50",  "lat": 54.1798, "lon": 45.1725, "time_window_start": "09:00", "time_window_end": "17:00", "priority": "medium"},
  {"name": "Салон Т2 Полежаева",            "city": "Саранск",           "street": "ул. Полежаева",         "houseNumber": "60",  "lat": 54.1860, "lon": 45.1660, "time_window_start": "09:00", "time_window_end": "19:00", "priority": "medium"},
  {"name": "Салон Т2 Химмаш",               "city": "Саранск",           "street": "ул. Терешковой",        "houseNumber": "4",   "lat": 54.1710, "lon": 45.1950, "time_window_start": "09:00", "time_window_end": "18:00", "priority": "low"},
  {"name": "Салон Т2 Победы",               "city": "Саранск",           "street": "ул. Победы",            "houseNumber": "120", "lat": 54.1935, "lon": 45.1620, "time_window_start": "10:00", "time_window_end": "21:00", "priority": "medium"},
  {"name": "Салон Т2 Рабочая",              "city": "Саранск",           "street": "ул. Рабочая",           "houseNumber": "18",  "lat": 54.1770, "lon": 45.1580, "time_window_start": "10:00", "time_window_end": "20:00", "priority": "medium"},
  {"name": "Салон Т2 Гагарина",             "city": "Саранск",           "street": "ул. Гагарина",          "houseNumber": "116", "lat": 54.1690, "lon": 45.2010, "time_window_start": "10:00", "time_window_end": "21:00", "priority": "medium"},
  {"name": "Салон Т2 50 лет Октября",       "city": "Саранск",           "street": "пр. 50 лет Октября",    "houseNumber": "12",  "lat": 54.1820, "lon": 45.1540, "time_window_start": "10:00", "time_window_end": "20:00", "priority": "medium"},
  {"name": "Салон Т2 Юго-Запад",            "city": "Саранск",           "street": "ул. Волгоградская",     "houseNumber": "63",  "lat": 54.1650, "lon": 45.1700, "time_window_start": "09:00", "time_window_end": "18:00", "priority": "low"},
  {"name": "Салон Т2 Рузаевка",             "city": "Рузаевка",          "street": "ул. Ленина",            "houseNumber": "1",   "lat": 54.0620, "lon": 44.9500, "time_window_start": "09:00", "time_window_end": "17:00", "priority": "medium"},
  {"name": "Салон Т2 Рузаевка-2",           "city": "Рузаевка",          "street": "ул. Краснозаводская",   "houseNumber": "3",   "lat": 54.0580, "lon": 44.9450, "time_window_start": "09:00", "time_window_end": "17:00", "priority": "low"},
  {"name": "Салон Т2 Ковылкино",            "city": "Ковылкино",         "street": "ул. Свердлова",         "houseNumber": "12",  "lat": 54.0380, "lon": 43.9190, "time_window_start": "09:00", "time_window_end": "17:00", "priority": "medium"},
  {"name": "Салон Т2 Краснослободск",       "city": "Краснослободск",    "street": "ул. Интернациональная", "houseNumber": "5",   "lat": 54.4270, "lon": 43.7780, "time_window_start": "09:00", "time_window_end": "17:00", "priority": "medium"},
  {"name": "Салон Т2 Темников",             "city": "Темников",          "street": "ул. Советская",         "houseNumber": "8",   "lat": 54.6320, "lon": 43.2100, "time_window_start": "09:00", "time_window_end": "17:00", "priority": "low"},
  {"name": "Салон Т2 Ардатов",              "city": "Ардатов",           "street": "ул. Ленина",            "houseNumber": "14",  "lat": 54.8460, "lon": 46.2370, "time_window_start": "09:00", "time_window_end": "17:00", "priority": "medium"},
  {"name": "Салон Т2 Чамзинка",             "city": "Чамзинка",          "street": "ул. Советская",         "houseNumber": "3",   "lat": 54.4010, "lon": 45.7560, "time_window_start": "09:00", "time_window_end": "17:00", "priority": "low"},
  {"name": "Салон Т2 Комсомольский",        "city": "Комсомольский",     "street": "ул. Молодёжная",        "houseNumber": "7",   "lat": 54.0900, "lon": 45.0200, "time_window_start": "09:00", "time_window_end": "17:00", "priority": "low"},
  {"name": "Салон Т2 Инсар",                "city": "Инсар",             "street": "ул. Советская",         "houseNumber": "20",  "lat": 53.8700, "lon": 44.3700, "time_window_start": "09:00", "time_window_end": "17:00", "priority": "low"},
  {"name": "Салон Т2 Торбеево",             "city": "Торбеево",          "street": "ул. Ленина",            "houseNumber": "10",  "lat": 54.0530, "lon": 43.0700, "time_window_start": "09:00", "time_window_end": "17:00", "priority": "low"},
  {"name": "Салон Т2 Зубова Поляна",        "city": "Зубова Поляна",     "street": "ул. Интернациональная", "houseNumber": "15",  "lat": 54.0800, "lon": 42.8400, "time_window_start": "09:00", "time_window_end": "17:00", "priority": "low"},
  {"name": "Салон Т2 Ельники",              "city": "Ельники",           "street": "ул. Заводская",         "houseNumber": "6",   "lat": 54.4500, "lon": 43.2200, "time_window_start": "09:00", "time_window_end": "17:00", "priority": "low"},
  {"name": "Салон Т2 Атяшево",              "city": "Атяшево",           "street": "ул. Советская",         "houseNumber": "25",  "lat": 54.5600, "lon": 46.1200, "time_window_start": "09:00", "time_window_end": "17:00", "priority": "low"},
  {"name": "Салон Т2 Большие Березники",    "city": "Большие Березники", "street": "ул. Центральная",       "houseNumber": "1",   "lat": 54.3700, "lon": 45.8500, "time_window_start": "09:00", "time_window_end": "17:00", "priority": "low"},
  {"name": "Салон Т2 Лямбирь",              "city": "Лямбирь",           "street": "ул. Молодёжная",        "houseNumber": "4",   "lat": 54.2800, "lon": 45.3700, "time_window_start": "09:00", "time_window_end": "17:00", "priority": "low"}
]
