[
  {
    "name": "Магазин «Полёт» г.о-1",
    "lat": 54.203982,
    "lon": 45.086872,
    "time_window_start": "09:00",
    "time_window_end": "18:00",
    "category": "C",
    "city": "Саранск",
    "district": "г.о. Саранск",
    "address": "г.о. Саранск, точка #1"
  },
  {
    "name": "Универмаг «Ромашка» г.о-2",
    "lat": 54.16309,
    "lon": 45.070159,
    "time_window_start": "09:00",
    "time_window_end": "15:00",
    "category": "B",
    "city": "Саранск",
    "district": "г.о. Саранск",
    "address": "г.о. Саранск, точка #2"
  },
  {
    "name": "Универмаг «Мордовия» г.о-3",
    "lat": 54.211198,
    "lon": 45.162001,
    "time_window_start": "09:00",
    "time_window_end": "15:00",
    "category": "B",
    "city": "Саранск",
    "district": "г.о. Саранск",
    "address": "г.о. Саранск, точка #3"
  },
  {
    "name": "Универмаг «Юбилейный» г.о-4",
    "lat": 54.201819,
    "lon": 45.196316,
    "time_window_start": "09:00",
    "time_window_end": "18:00",
    "category": "D",
    "city": "Саранск",
    "district": "г.о. Саранск",
    "address": "г.о. Саранск, точка #4"
  },
  {
    "name": "Продукты «Нива» г.о-5",
    "lat": 54.219495,
    "lon": 45.191979,
    "time_window_start": "09:00",
    "time_window_end": "18:00",
    "category": "D",
    "city": "Саранск",
    "district": "г.о. Саранск",
    "address": "г.о. Саранск, точка #5"
  },
  {
    "name": "Супермаркет «Нива» г.о-6",
    "lat": 54.206289,
    "lon": 45.154489,
    "time_window_start": "09:00",
    "time_window_end": "15:00",
    "category": "B",
    "city": "Саранск",
    "district": "г.о. Саранск",
    "address": "г.о. Саранск, точка #6"
  },
  {
    "name": "Универмаг «Сокол» г.о-7",
    "lat": 54.156844,
    "lon": 45.12668,
    "time_window_start": "09:00",
    "time_window_end": "12:00",
    "category": "A",
    "city": "Саранск",
    "district": "г.о. Саранск",
    "address": "г.о. Саранск, точка #7"
  },
  {
    "name": "Торговая точка «Полёт» г.о-8",
    "lat": 54.212434,
    "lon": 45.197758,
    "time_window_start": "09:00",
    "time_window_end": "15:00",
    "category": "B",
    "city": "Саранск",
    "district": "г.о. Саранск",
    "address": "г.о. Саранск, точка #8"
  },
  {
    "name": "Торговая точка «Мордовия» г.о-9",
    "lat": 54.2178,
    "lon": 45.206742,
    "time_window_start": "09:00",
    "time_window_end": "15:00",
    "category": "B",
    "city": "Саранск",
    "district": "г.о. Саранск",
    "address": "г.о. Саранск, точка #9"
  },
  {
    "name": "Универмаг «Семёновский» г.о-10",
    "lat": 54.141255,
    "lon": 45.196812,
    "time_window_start": "09:00",
    "time_window_end": "18:00",
    "category": "C",
    "city": "Саранск",
    "district": "г.о. Саранск",
    "address": "г.о. Саранск, точка #10"
  },
  {
    "name": "Продуктовый «Маяк» г.о-11",
    "lat": 54.194837,
    "lon": 45.247422,
    "time_window_start": "09:00",
    "time_window_end": "15:00",
    "category": "B",
    "city": "Саранск",
    "district": "г.о. Саранск",
    "address": "г.о. Саранск, точка #11"
  },
  {
    "name": "Киоск «Победа» г.о-12",
    "lat": 54.142107,
    "lon": 45.07934,
    "time_window_start": "09:00",
    "time_window_end": "18:00",
    "category": "D",
    "city": "Саранск",
    "district": "г.о. Саранск",
    "address": "г.о. Саранск, точка #12"
  },
  {
    "name": "Минимаркет «Север» г.о-13",
    "lat": 54.179901,
    "lon": 45.124387,
    "time_window_start": "09:00",
    "time_window_end": "18:00",
    "category": "D",
    "city": "Саранск",
    "district": "г.о. Саранск",
    "address": "г.о. Саранск, точка #13"
  },
  {
    "name": "Торговый павильон «Родник» г.о-14",
    "lat": 54.2281,
    "lon": 45.16991,
    "time_window_start": "09:00",
    "time_window_end": "18:00",
    "category": "D",
    "city": "Саранск",
    "district": "г.о. Саранск",
    "address": "г.о. Саранск, точка #14"
  },
  {
    "name": "Магазин «Родник» г.о-15",
    "lat": 54.21665,
    "lon": 45.089851,
    "time_window_start": "09:00",
    "time_window_end": "18:00",
    "category": "C",
    "city": "Саранск",
    "district": "г.о. Саранск",
    "address": "г.о. Саранск, точка #15"
  },
  {
    "name": "Гастроном «Ромашка» г.о-16",
    "lat": 54.205949,
    "lon": 45.069862,
    "time_window_start": "09:00",
    "time_window_end": "18:00",
    "category": "D",
    "city": "Саранск",
    "district": "г.о. Саранск",
    "address": "г.о. Саранск, точка #16"
  },
  {
    "name": "Киоск «Маяк» г.о-17",
    "lat": 54.199648,
    "lon": 45.158452,
    "time_window_start": "09:00",
    "time_window_end": "12:00",
    "category": "A",
    "city": "Саранск",
    "district": "г.о. Саранск",
    "address": "г.о. Саранск, точка #17"
  },
  {
    "name": "Гастроном «Победа» г.о-18",
    "lat": 54.161167,
    "lon": 45.117651,
    "time_window_start": "09:00",
    "time_window_end": "15:00",
    "category": "B",
    "city": "Саранск",
    "district": "г.о. Саранск",
    "address": "г.о. Саранск, точка #18"
  },
  {
    "name": "Торговая точка «Горизонт» г.о-19",
    "lat": 54.179242,
    "lon": 45.257963,
    "time_window_start": "09:00",
    "time_window_end": "18:00",
    "category": "C",
    "city": "Саранск",
    "district": "г.о. Саранск",
    "address": "г.о. Саранск, точка #19"
  },
  {
    "name": "Киоск «Восток» г.о-20",
    "lat": 54.179482,
    "lon": 45.266882,
    "time_window_start": "09:00",
    "time_window_end": "12:00",
    "category": "A",
    "city": "Саранск",
    "district": "г.о. Саранск",
    "address": "г.о. Саранск, точка #20"
  },
  {
    "name": "Торговая точка «Центральный» г.о-21",
    "lat": 54.128703,
    "lon": 45.243849,
    "time_window_start": "09:00",
    "time_window_end": "18:00",
    "category": "C",
    "city": "Саранск",
    "district": "г.о. Саранск",
    "address": "г.о. Саранск, точка #21"
  },
  {
    "name": "Магазин «Мордовия» г.о-22",
    "lat": 54.227079,
    "lon": 45.22243,
    "time_window_start": "09:00",
    "time_window_end": "18:00",
    "category": "D",
    "city": "Саранск",
    "district": "г.о. Саранск",
    "address": "г.о. Саранск, точка #22"
  },
  {
    "name": "Гастроном «Юбилейный» г.о-23",
    "lat": 54.1989,
    "lon": 45.215551,
    "time_window_start": "09:00",
    "time_window_end": "12:00",
    "category": "A",
    "city": "Саранск",
    "district": "г.о. Саранск",
    "address": "г.о. Саранск, точка #23"
  },
  {
    "name": "Продукты «Дружба» г.о-24",
    "lat": 54.170432,
    "lon": 45.195919,
    "time_window_start": "09:00",
    "time_window_end": "18:00",
    "category": "D",
    "city": "Саранск",
    "district": "г.о. Саранск",
    "address": "г.о. Саранск, точка #24"
  },
  {
    "name": "Магазин «Радуга» г.о-25",
    "lat": 54.149664,
    "lon": 45.15463,
    "time_window_start": "09:00",
    "time_window_end": "15:00",
    "category": "B",
    "city": "Саранск",
    "district": "г.о. Саранск",
    "address": "г.о. Саранск, точка #25"
  },
  {
    "name": "Торговый павильон «Полёт» г.о-26",
    "lat": 54.158345,
    "lon": 45.07982,
    "time_window_start": "09:00",
    "time_window_end": "15:00",
    "category": "B",
    "city": "Саранск",
    "district": "г.о. Саранск",
    "address": "г.о. Саранск, точка #26"
  },
  {
    "name": "Супермаркет «Лидер» г.о-27",
    "lat": 54.160243,
    "lon": 45.125637,
    "time_window_start": "09:00",
    "time_window_end": "18:00",
    "category": "D",
    "city": "Саранск",
    "district": "г.о. Саранск",
    "address": "г.о. Саранск, точка #27"
  },
  {
    "name": "Продуктовый «Дружба» г.о-28",
    "lat": 54.138273,
    "lon": 45.198181,
    "time_window_start": "09:00",
    "time_window_end": "12:00",
    "category": "A",
    "city": "Саранск",
    "district": "г.о. Саранск",
    "address": "г.о. Саранск, точка #28"
  },
  {
    "name": "Супермаркет «Победа» г.о-29",
    "lat": 54.120961,
    "lon": 45.169713,
    "time_window_start": "09:00",
    "time_window_end": "12:00",
    "category": "A",
    "city": "Саранск",
    "district": "г.о. Саранск",
    "address": "г.о. Саранск, точка #29"
  },
  {
    "name": "Киоск «Уют» г.о-30",
    "lat": 54.158503,
    "lon": 45.123342,
    "time_window_start": "09:00",
    "time_window_end": "18:00",
    "category": "C",
    "city": "Саранск",
    "district": "г.о. Саранск",
    "address": "г.о. Саранск, точка #30"
  },
  {
    "name": "Продуктовый «Родник» Ард-31",
    "lat": 54.843108,
    "lon": 46.247908,
    "time_window_start": "09:00",
    "time_window_end": "15:00",
    "category": "B",
    "city": "Ардатовский",
    "district": "Ардатовский район",
    "address": "Ардатовский район, точка #31"
  },
  {
    "name": "Супермаркет «Волга» Ард-32",
    "lat": 54.853686,
    "lon": 46.228163,
    "time_window_start": "09:00",
    "time_window_end": "18:00",
    "category": "D",
    "city": "Ардатовский",
    "district": "Ардатовский район",
    "address": "Ардатовский район, точка #32"
  },
  {
    "name": "Торговый павильон «Полёт» Ард-33",
    "lat": 54.858319,
    "lon": 46.199245,
    "time_window_start": "09:00",
    "time_window_end": "12:00",
    "category": "A",
    "city": "Ардатовский",
    "district": "Ардатовский район",
    "address": "Ардатовский район, точка #33"
  },
  {
    "name": "Торговый павильон «Семёновский» Ард-34",
    "lat": 54.843852,
    "lon": 46.221958,
    "time_window_start": "09:00",
    "time_window_end": "18:00",
    "category": "D",
    "city": "Ардатовский",
    "district": "Ардатовский район",
    "address": "Ардатовский район, точка #34"
  },
  {
    "name": "Гастроном «Уют» Ард-35",
    "lat": 54.858679,
    "lon": 46.218637,
    "time_window_start": "09:00",
    "time_window_end": "12:00",
    "category": "A",
    "city": "Ардатовский",
    "district": "Ардатовский район",
    "address": "Ардатовский район, точка #35"
  },
  {
    "name": "Торговая точка «Маяк» Ард-36",
    "lat": 54.849862,
    "lon": 46.19078,
    "time_window_start": "09:00",
    "time_window_end": "18:00",
    "category": "C",
    "city": "Ардатовский",
    "district": "Ардатовский район",
    "address": "Ардатовский район, точка #36"
  },
  {
    "name": "Универмаг «Север» Ард-37",
    "lat": 54.864083,
    "lon": 46.235201,
    "time_window_start": "09:00",
    "time_window_end": "15:00",
    "category": "B",
    "city": "Ардатовский",
    "district": "Ардатовский район",
    "address": "Ардатовский район, точка #37"
  },
  {
    "name": "Торговая точка «Родник» Ард-38",
    "lat": 54.824547,
    "lon": 46.249363,
    "time_window_start": "09:00",
    "time_window_end": "18:00",
    "category": "D",
    "city": "Ардатовский",
    "district": "Ардатовский район",
    "address": "Ардатовский район, точка #38"
  },
  {
    "name": "Торговый павильон «Родник» Ард-39",
    "lat": 54.855779,
    "lon": 46.237565,
    "time_window_start": "09:00",
    "time_window_end": "18:00",
    "category": "C",
    "city": "Ардатовский",
    "district": "Ардатовский район",
    "address": "Ардатовский район, точка #39"
  },
  {
    "name": "Магазин «Родник» Ард-40",
    "lat": 54.869711,
    "lon": 46.237626,
    "time_window_start": "09:00",
    "time_window_end": "15:00",
    "category": "B",
    "city": "Ардатовский",
    "district": "Ардатовский район",
    "address": "Ардатовский район, точка #40"
  },
  {
    "name": "Киоск «Сокол» Атя-41",
    "lat": 54.60643,
    "lon": 45.903954,
    "time_window_start": "09:00",
    "time_window_end": "18:00",
    "category": "C",
    "city": "Атяшевский",
    "district": "Атяшевский район",
    "address": "Атяшевский район, точка #41"
  },
  {
    "name": "Гастроном «Уют» Атя-42",
    "lat": 54.60201,
    "lon": 45.856681,
    "time_window_start": "09:00",
    "time_window_end": "18:00",
    "category": "D",
    "city": "Атяшевский",
    "district": "Атяшевский район",
    "address": "Атяшевский район, точка #42"
  },
  {
    "name": "Универмаг «Восток» Атя-43",
    "lat": 54.593508,
    "lon": 45.875951,
    "time_window_start": "09:00",
    "time_window_end": "15:00",
    "category": "B",
    "city": "Атяшевский",
    "district": "Атяшевский район",
    "address": "Атяшевский район, точка #43"
  },
  {
    "name": "Магазин «Радуга» Атя-44",
    "lat": 54.609365,
    "lon": 45.865418,
    "time_window_start": "09:00",
    "time_window_end": "15:00",
    "category": "B",
    "city": "Атяшевский",
    "district": "Атяшевский район",
    "address": "Атяшевский район, точка #44"
  },
  {
    "name": "Магазин «Рябина» Атя-45",
    "lat": 54.584738,
    "lon": 45.85803,
    "time_window_start": "09:00",
    "time_window_end": "18:00",
    "category": "D",
    "city": "Атяшевский",
    "district": "Атяшевский район",
    "address": "Атяшевский район, точка #45"
  },
  {
    "name": "Супермаркет «Родник» Атя-46",
    "lat": 54.605209,
    "lon": 45.850182,
    "time_window_start": "09:00",
    "time_window_end": "15:00",
    "category": "B",
    "city": "Атяшевский",
    "district": "Атяшевский район",
    "address": "Атяшевский район, точка #46"
  },
  {
    "name": "Минимаркет «Восток» Атя-47",
    "lat": 54.586476,
    "lon": 45.883384,
    "time_window_start": "09:00",
    "time_window_end": "18:00",
    "category": "D",
    "city": "Атяшевский",
    "district": "Атяшевский район",
    "address": "Атяшевский район, точка #47"
  },
  {
    "name": "Супермаркет «Север» Атя-48",
    "lat": 54.586741,
    "lon": 45.89265,
    "time_window_start": "09:00",
    "time_window_end": "18:00",
    "category": "C",
    "city": "Атяшевский",
    "district": "Атяшевский район",
    "address": "Атяшевский район, точка #48"
  },
  {
    "name": "Супермаркет «Перекрёсток» Атя-49",
    "lat": 54.613007,
    "lon": 45.85502,
    "time_window_start": "09:00",
    "time_window_end": "12:00",
    "category": "A",
    "city": "Атяшевский",
    "district": "Атяшевский район",
    "address": "Атяшевский район, точка #49"
  },
  {
    "name": "Магазин «Волга» Атя-50",
    "lat": 54.57688,
    "lon": 45.878496,
    "time_window_start": "09:00",
    "time_window_end": "12:00",
    "category": "A",
    "city": "Атяшевский",
    "district": "Атяшевский район",
    "address": "Атяшевский район, точка #50"
  },
  {
    "name": "Продуктовый «Север» Атю-51",
    "lat": 54.047567,
    "lon": 43.679389,
    "time_window_start": "09:00",
    "time_window_end": "15:00",
    "category": "B",
    "city": "Атюрьевский",
    "district": "Атюрьевский район",
    "address": "Атюрьевский район, точка #51"
  },
  {
    "name": "Торговый павильон «Радуга» Атю-52",
    "lat": 54.026246,
    "lon": 43.658795,
    "time_window_start": "09:00",
    "time_window_end": "18:00",
    "category": "D",
    "city": "Атюрьевский",
    "district": "Атюрьевский район",
    "address": "Атюрьевский район, точка #52"
  },
  {
    "name": "Продуктовый «Уют» Атю-53",
    "lat": 54.0439,
    "lon": 43.71423,
    "time_window_start": "09:00",
    "time_window_end": "12:00",
    "category": "A",
    "city": "Атюрьевский",
    "district": "Атюрьевский район",
    "address": "Атюрьевский район, точка #53"
  },
  {
    "name": "Торговый павильон «Перекрёсток» Атю-54",
    "lat": 54.007624,
    "lon": 43.660386,
    "time_window_start": "09:00",
    "time_window_end": "18:00",
    "category": "C",
    "city": "Атюрьевский",
    "district": "Атюрьевский район",
    "address": "Атюрьевский район, точка #54"
  },
  {
    "name": "Киоск «Заря» Атю-55",
    "lat": 54.052883,
    "lon": 43.695989,
    "time_window_start": "09:00",
    "time_window_end": "12:00",
    "category": "A",
    "city": "Атюрьевский",
    "district": "Атюрьевский район",
    "address": "Атюрьевский район, точка #55"
  },
  {
    "name": "Минимаркет «Перекрёсток» Атю-56",
    "lat": 54.042528,
    "lon": 43.655933,
    "time_window_start": "09:00",
    "time_window_end": "18:00",
    "category": "D",
    "city": "Атюрьевский",
    "district": "Атюрьевский район",
    "address": "Атюрьевский район, точка #56"
  },
  {
    "name": "Минимаркет «Волга» Атю-57",
    "lat": 54.054206,
    "lon": 43.703757,
    "time_window_start": "09:00",
    "time_window_end": "18:00",
    "category": "D",
    "city": "Атюрьевский",
    "district": "Атюрьевский район",
    "address": "Атюрьевский район, точка #57"
  },
  {
    "name": "Торговая точка «Рябина» Атю-58",
    "lat": 54.02156,
    "lon": 43.650352,
    "time_window_start": "09:00",
    "time_window_end": "18:00",
    "category": "C",
    "city": "Атюрьевский",
    "district": "Атюрьевский район",
    "address": "Атюрьевский район, точка #58"
  },
  {
    "name": "Торговая точка «Сокол» Атю-59",
    "lat": 54.038221,
    "lon": 43.671866,
    "time_window_start": "09:00",
    "time_window_end": "15:00",
    "category": "B",
    "city": "Атюрьевский",
    "district": "Атюрьевский район",
    "address": "Атюрьевский район, точка #59"
  },
  {
    "name": "Гастроном «Радуга» Атю-60",
    "lat": 54.015754,
    "lon": 43.657813,
    "time_window_start": "09:00",
    "time_window_end": "15:00",
    "category": "B",
    "city": "Атюрьевский",
    "district": "Атюрьевский район",
    "address": "Атюрьевский район, точка #60"
  },
  {
    "name": "Продукты «Берёзка» Бол-61",
    "lat": 54.261032,
    "lon": 45.751739,
    "time_window_start": "09:00",
    "time_window_end": "12:00",
    "category": "A",
    "city": "Большеберезниковский",
    "district": "Большеберезниковский район",
    "address": "Большеберезниковский район, точка #61"
  },
  {
    "name": "Магазин «Север» Бол-62",
    "lat": 54.290955,
    "lon": 45.747474,
    "time_window_start": "09:00",
    "time_window_end": "15:00",
    "category": "B",
    "city": "Большеберезниковский",
    "district": "Большеберезниковский район",
    "address": "Большеберезниковский район, точка #62"
  },
  {
    "name": "Супермаркет «Волга» Бол-63",
    "lat": 54.247346,
    "lon": 45.750938,
    "time_window_start": "09:00",
    "time_window_end": "15:00",
    "category": "B",
    "city": "Большеберезниковский",
    "district": "Большеберезниковский район",
    "address": "Большеберезниковский район, точка #63"
  },
  {
    "name": "Минимаркет «Колос» Бол-64",
    "lat": 54.247196,
    "lon": 45.763746,
    "time_window_start": "09:00",
    "time_window_end": "18:00",
    "category": "D",
    "city": "Большеберезниковский",
    "district": "Большеберезниковский район",
    "address": "Большеберезниковский район, точка #64"
  },
  {
    "name": "Универмаг «Лидер» Бол-65",
    "lat": 54.285411,
    "lon": 45.735122,
    "time_window_start": "09:00",
    "time_window_end": "18:00",
    "category": "C",
    "city": "Большеберезниковский",
    "district": "Большеберезниковский район",
    "address": "Большеберезниковский район, точка #65"
  },
  {
    "name": "Продуктовый «Юбилейный» Бол-66",
    "lat": 54.272391,
    "lon": 45.749106,
    "time_window_start": "09:00",
    "time_window_end": "12:00",
    "category": "A",
    "city": "Большеберезниковский",
    "district": "Большеберезниковский район",
    "address": "Большеберезниковский район, точка #66"
  },
  {
    "name": "Торговый павильон «Удача» Бол-67",
    "lat": 54.276413,
    "lon": 45.722019,
    "time_window_start": "09:00",
    "time_window_end": "15:00",
    "category": "B",
    "city": "Большеберезниковский",
    "district": "Большеберезниковский район",
    "address": "Большеберезниковский район, точка #67"
  },
  {
    "name": "Супермаркет «Центральный» Бол-68",
    "lat": 54.2462,
    "lon": 45.752278,
    "time_window_start": "09:00",
    "time_window_end": "18:00",
    "category": "C",
    "city": "Большеберезниковский",
    "district": "Большеберезниковский район",
    "address": "Большеберезниковский район, точка #68"
  },
  {
    "name": "Торговый павильон «Центральный» Бол-69",
    "lat": 54.277693,
    "lon": 45.749797,
    "time_window_start": "09:00",
    "time_window_end": "18:00",
    "category": "D",
    "city": "Большеберезниковский",
    "district": "Большеберезниковский район",
    "address": "Большеберезниковский район, точка #69"
  },
  {
    "name": "Универмаг «Уют» Бол-70",
    "lat": 54.255846,
    "lon": 45.750218,
    "time_window_start": "09:00",
    "time_window_end": "18:00",
    "category": "D",
    "city": "Большеберезниковский",
    "district": "Большеберезниковский район",
    "address": "Большеберезниковский район, точка #70"
  },
  {
    "name": "Продуктовый «Семёновский» Бол-71",
    "lat": 54.481213,
    "lon": 44.868254,
    "time_window_start": "09:00",
    "time_window_end": "18:00",
    "category": "C",
    "city": "Большеигнатовский",
    "district": "Большеигнатовский район",
    "address": "Большеигнатовский район, точка #71"
  },
  {
    "name": "Гастроном «Нива» Бол-72",
    "lat": 54.458947,
    "lon": 44.858222,
    "time_window_start": "09:00",
    "time_window_end": "18:00",
    "category": "D",
    "city": "Большеигнатовский",
    "district": "Большеигнатовский район",
    "address": "Большеигнатовский район, точка #72"
  },
  {
    "name": "Минимаркет «Нива» Бол-73",
    "lat": 54.483366,
    "lon": 44.873083,
    "time_window_start": "09:00",
    "time_window_end": "12:00",
    "category": "A",
    "city": "Большеигнатовский",
    "district": "Большеигнатовский район",
    "address": "Большеигнатовский район, точка #73"
  },
  {
    "name": "Торговый павильон «Центральный» Бол-74",
    "lat": 54.477507,
    "lon": 44.877467,
    "time_window_start": "09:00",
    "time_window_end": "15:00",
    "category": "B",
    "city": "Большеигнатовский",
    "district": "Большеигнатовский район",
    "address": "Большеигнатовский район, точка #74"
  },
  {
    "name": "Универмаг «Перекрёсток» Бол-75",
    "lat": 54.49811,
    "lon": 44.878923,
    "time_window_start": "09:00",
    "time_window_end": "18:00",
    "category": "C",
    "city": "Большеигнатовский",
    "district": "Большеигнатовский район",
    "address": "Большеигнатовский район, точка #75"
  },
  {
    "name": "Торговая точка «Радуга» Бол-76",
    "lat": 54.487361,
    "lon": 44.913726,
    "time_window_start": "09:00",
    "time_window_end": "12:00",
    "category": "A",
    "city": "Большеигнатовский",
    "district": "Большеигнатовский район",
    "address": "Большеигнатовский район, точка #76"
  },
  {
    "name": "Гастроном «Юбилейный» Бол-77",
    "lat": 54.48263,
    "lon": 44.856351,
    "time_window_start": "09:00",
    "time_window_end": "15:00",
    "category": "B",
    "city": "Большеигнатовский",
    "district": "Большеигнатовский район",
    "address": "Большеигнатовский район, точка #77"
  },
  {
    "name": "Торговая точка «Семёновский» Бол-78",
    "lat": 54.501898,
    "lon": 44.852889,
    "time_window_start": "09:00",
    "time_window_end": "18:00",
    "category": "D",
    "city": "Большеигнатовский",
    "district": "Большеигнатовский район",
    "address": "Большеигнатовский район, точка #78"
  },
  {
    "name": "Гастроном «Удача» Бол-79",
    "lat": 54.490951,
    "lon": 44.828347,
    "time_window_start": "09:00",
    "time_window_end": "18:00",
    "category": "D",
    "city": "Большеигнатовский",
    "district": "Большеигнатовский район",
    "address": "Большеигнатовский район, точка #79"
  },
  {
    "name": "Гастроном «Радуга» Бол-80",
    "lat": 54.491182,
    "lon": 44.861999,
    "time_window_start": "09:00",
    "time_window_end": "15:00",
    "category": "B",
    "city": "Большеигнатовский",
    "district": "Большеигнатовский район",
    "address": "Большеигнатовский район, точка #80"
  },
  {
    "name": "Продукты «Колос» Дуб-81",
    "lat": 54.270179,
    "lon": 46.068057,
    "time_window_start": "09:00",
    "time_window_end": "18:00",
    "category": "D",
    "city": "Дубёнский",
    "district": "Дубёнский район",
    "address": "Дубёнский район, точка #81"
  },
  {
    "name": "Торговая точка «Родник» Дуб-82",
    "lat": 54.269197,
    "lon": 46.063466,
    "time_window_start": "09:00",
    "time_window_end": "12:00",
    "category": "A",
    "city": "Дубёнский",
    "district": "Дубёнский район",
    "address": "Дубёнский район, точка #82"
  },
  {
    "name": "Универмаг «Ромашка» Дуб-83",
    "lat": 54.266454,
    "lon": 46.094669,
    "time_window_start": "09:00",
    "time_window_end": "18:00",
    "category": "D",
    "city": "Дубёнский",
    "district": "Дубёнский район",
    "address": "Дубёнский район, точка #83"
  },
  {
    "name": "Продуктовый «Колос» Дуб-84",
    "lat": 54.289585,
    "lon": 46.079114,
    "time_window_start": "09:00",
    "time_window_end": "18:00",
    "category": "D",
    "city": "Дубёнский",
    "district": "Дубёнский район",
    "address": "Дубёнский район, точка #84"
  },
  {
    "name": "Торговый павильон «Берёзка» Дуб-85",
    "lat": 54.247513,
    "lon": 46.109846,
    "time_window_start": "09:00",
    "time_window_end": "12:00",
    "category": "A",
    "city": "Дубёнский",
    "district": "Дубёнский район",
    "address": "Дубёнский район, точка #85"
  },
  {
    "name": "Продуктовый «Семёновский» Дуб-86",
    "lat": 54.28461,
    "lon": 46.117731,
    "time_window_start": "09:00",
    "time_window_end": "18:00",
    "category": "C",
    "city": "Дубёнский",
    "district": "Дубёнский район",
    "address": "Дубёнский район, точка #86"
  },
  {
    "name": "Магазин «Мордовия» Дуб-87",
    "lat": 54.285484,
    "lon": 46.084362,
    "time_window_start": "09:00",
    "time_window_end": "18:00",
    "category": "C",
    "city": "Дубёнский",
    "district": "Дубёнский район",
    "address": "Дубёнский район, точка #87"
  },
  {
    "name": "Универмаг «Восток» Дуб-88",
    "lat": 54.253192,
    "lon": 46.117475,
    "time_window_start": "09:00",
    "time_window_end": "15:00",
    "category": "B",
    "city": "Дубёнский",
    "district": "Дубёнский район",
    "address": "Дубёнский район, точка #88"
  },
  {
    "name": "Гастроном «Сокол» Дуб-89",
    "lat": 54.244011,
    "lon": 46.085416,
    "time_window_start": "09:00",
    "time_window_end": "15:00",
    "category": "B",
    "city": "Дубёнский",
    "district": "Дубёнский район",
    "address": "Дубёнский район, точка #89"
  },
  {
    "name": "Гастроном «Удача» Дуб-90",
    "lat": 54.276328,
    "lon": 46.093554,
    "time_window_start": "09:00",
    "time_window_end": "15:00",
    "category": "B",
    "city": "Дубёнский",
    "district": "Дубёнский район",
    "address": "Дубёнский район, точка #90"
  },
  {
    "name": "Продуктовый «Дружба» Ель-91",
    "lat": 54.405602,
    "lon": 43.58167,
    "time_window_start": "09:00",
    "time_window_end": "15:00",
    "category": "B",
    "city": "Ельниковский",
    "district": "Ельниковский район",
    "address": "Ельниковский район, точка #91"
  },
  {
    "name": "Гастроном «Маяк» Ель-92",
    "lat": 54.377391,
    "lon": 43.569051,
    "time_window_start": "09:00",
    "time_window_end": "12:00",
    "category": "A",
    "city": "Ельниковский",
    "district": "Ельниковский район",
    "address": "Ельниковский район, точка #92"
  },
  {
    "name": "Гастроном «Радуга» Ель-93",
    "lat": 54.400241,
    "lon": 43.573101,
    "time_window_start": "09:00",
    "time_window_end": "18:00",
    "category": "C",
    "city": "Ельниковский",
    "district": "Ельниковский район",
    "address": "Ельниковский район, точка #93"
  },
  {
    "name": "Минимаркет «Юбилейный» Ель-94",
    "lat": 54.378443,
    "lon": 43.514601,
    "time_window_start": "09:00",
    "time_window_end": "18:00",
    "category": "C",
    "city": "Ельниковский",
    "district": "Ельниковский район",
    "address": "Ельниковский район, точка #94"
  },
  {
    "name": "Магазин «Лидер» Ель-95",
    "lat": 54.37306,
    "lon": 43.574486,
    "time_window_start": "09:00",
    "time_window_end": "12:00",
    "category": "A",
    "city": "Ельниковский",
    "district": "Ельниковский район",
    "address": "Ельниковский район, точка #95"
  },
  {
    "name": "Киоск «Юбилейный» Ель-96",
    "lat": 54.376905,
    "lon": 43.565602,
    "time_window_start": "09:00",
    "time_window_end": "18:00",
    "category": "D",
    "city": "Ельниковский",
    "district": "Ельниковский район",
    "address": "Ельниковский район, точка #96"
  },
  {
    "name": "Продукты «Радуга» Ель-97",
    "lat": 54.368658,
    "lon": 43.563196,
    "time_window_start": "09:00",
    "time_window_end": "15:00",
    "category": "B",
    "city": "Ельниковский",
    "district": "Ельниковский район",
    "address": "Ельниковский район, точка #97"
  },
  {
    "name": "Минимаркет «Радуга» Ель-98",
    "lat": 54.377683,
    "lon": 43.558598,
    "time_window_start": "09:00",
    "time_window_end": "15:00",
    "category": "B",
    "city": "Ельниковский",
    "district": "Ельниковский район",
    "address": "Ельниковский район, точка #98"
  },
  {
    "name": "Киоск «Берёзка» Ель-99",
    "lat": 54.382167,
    "lon": 43.55369,
    "time_window_start": "09:00",
    "time_window_end": "18:00",
    "category": "D",
    "city": "Ельниковский",
    "district": "Ельниковский район",
    "address": "Ельниковский район, точка #99"
  },
  {
    "name": "Торговая точка «Радуга» Ель-100",
    "lat": 54.397886,
    "lon": 43.550787,
    "time_window_start": "09:00",
    "time_window_end": "18:00",
    "category": "D",
    "city": "Ельниковский",
    "district": "Ельниковский район",
    "address": "Ельниковский район, точка #100"
  },
  {
    "name": "Киоск «Уют» Зуб-101",
    "lat": 54.065767,
    "lon": 42.810621,
    "time_window_start": "09:00",
    "time_window_end": "15:00",
    "category": "B",
    "city": "Зубово-Полянский",
    "district": "Зубово-Полянский район",
    "address": "Зубово-Полянский район, точка #101"
  },
  {
    "name": "Гастроном «Родник» Зуб-102",
    "lat": 54.034915,
    "lon": 42.856992,
    "time_window_start": "09:00",
    "time_window_end": "18:00",
    "category": "D",
    "city": "Зубово-Полянский",
    "district": "Зубово-Полянский район",
    "address": "Зубово-Полянский район, точка #102"
  },
  {
    "name": "Супермаркет «Полёт» Зуб-103",
    "lat": 54.048034,
    "lon": 42.814655,
    "time_window_start": "09:00",
    "time_window_end": "18:00",
    "category": "D",
    "city": "Зубово-Полянский",
    "district": "Зубово-Полянский район",
    "address": "Зубово-Полянский район, точка #103"
  },
  {
    "name": "Торговый павильон «Север» Зуб-104",
    "lat": 54.059913,
    "lon": 42.857822,
    "time_window_start": "09:00",
    "time_window_end": "18:00",
    "category": "C",
    "city": "Зубово-Полянский",
    "district": "Зубово-Полянский район",
    "address": "Зубово-Полянский район, точка #104"
  },
  {
    "name": "Супермаркет «Север» Зуб-105",
    "lat": 54.052031,
    "lon": 42.841317,
    "time_window_start": "09:00",
    "time_window_end": "18:00",
    "category": "C",
    "city": "Зубово-Полянский",
    "district": "Зубово-Полянский район",
    "address": "Зубово-Полянский район, точка #105"
  },
  {
    "name": "Торговый павильон «Нива» Зуб-106",
    "lat": 54.042373,
    "lon": 42.834704,
    "time_window_start": "09:00",
    "time_window_end": "12:00",
    "category": "A",
    "city": "Зубово-Полянский",
    "district": "Зубово-Полянский район",
    "address": "Зубово-Полянский район, точка #106"
  },
  {
    "name": "Продукты «Юбилейный» Зуб-107",
    "lat": 54.071836,
    "lon": 42.82003,
    "time_window_start": "09:00",
    "time_window_end": "12:00",
    "category": "A",
    "city": "Зубово-Полянский",
    "district": "Зубово-Полянский район",
    "address": "Зубово-Полянский район, точка #107"
  },
  {
    "name": "Гастроном «Нива» Зуб-108",
    "lat": 54.070996,
    "lon": 42.804916,
    "time_window_start": "09:00",
    "time_window_end": "18:00",
    "category": "D",
    "city": "Зубово-Полянский",
    "district": "Зубово-Полянский район",
    "address": "Зубово-Полянский район, точка #108"
  },
  {
    "name": "Продукты «Север» Зуб-109",
    "lat": 54.061751,
    "lon": 42.85687,
    "time_window_start": "09:00",
    "time_window_end": "15:00",
    "category": "B",
    "city": "Зубово-Полянский",
    "district": "Зубово-Полянский район",
    "address": "Зубово-Полянский район, точка #109"
  },
  {
    "name": "Продуктовый «Полёт» Зуб-110",
    "lat": 54.052239,
    "lon": 42.854435,
    "time_window_start": "09:00",
    "time_window_end": "15:00",
    "category": "B",
    "city": "Зубово-Полянский",
    "district": "Зубово-Полянский район",
    "address": "Зубово-Полянский район, точка #110"
  },
  {
    "name": "Супермаркет «Центральный» Инс-111",
    "lat": 53.888256,
    "lon": 44.360457,
    "time_window_start": "09:00",
    "time_window_end": "18:00",
    "category": "C",
    "city": "Инсарский",
    "district": "Инсарский район",
    "address": "Инсарский район, точка #111"
  },
  {
    "name": "Минимаркет «Маяк» Инс-112",
    "lat": 53.868213,
    "lon": 44.388938,
    "time_window_start": "09:00",
    "time_window_end": "12:00",
    "category": "A",
    "city": "Инсарский",
    "district": "Инсарский район",
    "address": "Инсарский район, точка #112"
  },
  {
    "name": "Универмаг «Нива» Инс-113",
    "lat": 53.865245,
    "lon": 44.38781,
    "time_window_start": "09:00",
    "time_window_end": "15:00",
    "category": "B",
    "city": "Инсарский",
    "district": "Инсарский район",
    "address": "Инсарский район, точка #113"
  },
  {
    "name": "Гастроном «Рябина» Инс-114",
    "lat": 53.893054,
    "lon": 44.388933,
    "time_window_start": "09:00",
    "time_window_end": "18:00",
    "category": "C",
    "city": "Инсарский",
    "district": "Инсарский район",
    "address": "Инсарский район, точка #114"
  },
  {
    "name": "Магазин «Полёт» Инс-115",
    "lat": 53.853796,
    "lon": 44.355019,
    "time_window_start": "09:00",
    "time_window_end": "12:00",
    "category": "A",
    "city": "Инсарский",
    "district": "Инсарский район",
    "address": "Инсарский район, точка #115"
  },
  {
    "name": "Универмаг «Лидер» Инс-116",
    "lat": 53.855708,
    "lon": 44.382014,
    "time_window_start": "09:00",
    "time_window_end": "18:00",
    "category": "D",
    "city": "Инсарский",
    "district": "Инсарский район",
    "address": "Инсарский район, точка #116"
  },
  {
    "name": "Гастроном «Нива» Инс-117",
    "lat": 53.890198,
    "lon": 44.34532,
    "time_window_start": "09:00",
    "time_window_end": "15:00",
    "category": "B",
    "city": "Инсарский",
    "district": "Инсарский район",
    "address": "Инсарский район, точка #117"
  },
  {
    "name": "Киоск «Родник» Инс-118",
    "lat": 53.853607,
    "lon": 44.365671,
    "time_window_start": "09:00",
    "time_window_end": "15:00",
    "category": "B",
    "city": "Инсарский",
    "district": "Инсарский район",
    "address": "Инсарский район, точка #118"
  },
  {
    "name": "Продукты «Удача» Инс-119",
    "lat": 53.873288,
    "lon": 44.408701,
    "time_window_start": "09:00",
    "time_window_end": "18:00",
    "category": "D",
    "city": "Инсарский",
    "district": "Инсарский район",
    "address": "Инсарский район, точка #119"
  },
  {
    "name": "Гастроном «Горизонт» Инс-120",
    "lat": 53.867776,
    "lon": 44.352046,
    "time_window_start": "09:00",
    "time_window_end": "18:00",
    "category": "D",
    "city": "Инсарский",
    "district": "Инсарский район",
    "address": "Инсарский район, точка #120"
  },
  {
    "name": "Продукты «Семёновский» Ича-121",
    "lat": 54.118944,
    "lon": 46.589795,
    "time_window_start": "09:00",
    "time_window_end": "12:00",
    "category": "A",
    "city": "Ичалковский",
    "district": "Ичалковский район",
    "address": "Ичалковский район, точка #121"
  },
  {
    "name": "Торговая точка «Север» Ича-122",
    "lat": 54.121605,
    "lon": 46.591122,
    "time_window_start": "09:00",
    "time_window_end": "18:00",
    "category": "C",
    "city": "Ичалковский",
    "district": "Ичалковский район",
    "address": "Ичалковский район, точка #122"
  },
  {
    "name": "Гастроном «Ромашка» Ича-123",
    "lat": 54.127089,
    "lon": 46.557698,
    "time_window_start": "09:00",
    "time_window_end": "18:00",
    "category": "D",
    "city": "Ичалковский",
    "district": "Ичалковский район",
    "address": "Ичалковский район, точка #123"
  },
  {
    "name": "Продуктовый «Волга» Ича-124",
    "lat": 54.137539,
    "lon": 46.549187,
    "time_window_start": "09:00",
    "time_window_end": "15:00",
    "category": "B",
    "city": "Ичалковский",
    "district": "Ичалковский район",
    "address": "Ичалковский район, точка #124"
  },
  {
    "name": "Магазин «Колос» Ича-125",
    "lat": 54.125886,
    "lon": 46.552371,
    "time_window_start": "09:00",
    "time_window_end": "12:00",
    "category": "A",
    "city": "Ичалковский",
    "district": "Ичалковский район",
    "address": "Ичалковский район, точка #125"
  },
  {
    "name": "Магазин «Полёт» Ича-126",
    "lat": 54.137627,
    "lon": 46.593127,
    "time_window_start": "09:00",
    "time_window_end": "18:00",
    "category": "C",
    "city": "Ичалковский",
    "district": "Ичалковский район",
    "address": "Ичалковский район, точка #126"
  },
  {
    "name": "Магазин «Юбилейный» Ича-127",
    "lat": 54.126081,
    "lon": 46.592123,
    "time_window_start": "09:00",
    "time_window_end": "15:00",
    "category": "B",
    "city": "Ичалковский",
    "district": "Ичалковский район",
    "address": "Ичалковский район, точка #127"
  },
  {
    "name": "Супермаркет «Сокол» Ича-128",
    "lat": 54.133403,
    "lon": 46.596828,
    "time_window_start": "09:00",
    "time_window_end": "18:00",
    "category": "D",
    "city": "Ичалковский",
    "district": "Ичалковский район",
    "address": "Ичалковский район, точка #128"
  },
  {
    "name": "Продуктовый «Полёт» Ича-129",
    "lat": 54.100321,
    "lon": 46.593785,
    "time_window_start": "09:00",
    "time_window_end": "18:00",
    "category": "D",
    "city": "Ичалковский",
    "district": "Ичалковский район",
    "address": "Ичалковский район, точка #129"
  },
  {
    "name": "Супермаркет «Полёт» Ича-130",
    "lat": 54.113086,
    "lon": 46.566707,
    "time_window_start": "09:00",
    "time_window_end": "15:00",
    "category": "B",
    "city": "Ичалковский",
    "district": "Ичалковский район",
    "address": "Ичалковский район, точка #130"
  },
  {
    "name": "Торговая точка «Мордовия» Кад-131",
    "lat": 54.017284,
    "lon": 43.524191,
    "time_window_start": "09:00",
    "time_window_end": "18:00",
    "category": "C",
    "city": "Кадошкинский",
    "district": "Кадошкинский район",
    "address": "Кадошкинский район, точка #131"
  },
  {
    "name": "Киоск «Мордовия» Кад-132",
    "lat": 54.012813,
    "lon": 43.572412,
    "time_window_start": "09:00",
    "time_window_end": "18:00",
    "category": "C",
    "city": "Кадошкинский",
    "district": "Кадошкинский район",
    "address": "Кадошкинский район, точка #132"
  },
  {
    "name": "Магазин «Колос» Кад-133",
    "lat": 53.997923,
    "lon": 43.519477,
    "time_window_start": "09:00",
    "time_window_end": "18:00",
    "category": "D",
    "city": "Кадошкинский",
    "district": "Кадошкинский район",
    "address": "Кадошкинский район, точка #133"
  },
  {
    "name": "Супермаркет «Дружба» Кад-134",
    "lat": 54.00959,
    "lon": 43.507479,
    "time_window_start": "09:00",
    "time_window_end": "15:00",
    "category": "B",
    "city": "Кадошкинский",
    "district": "Кадошкинский район",
    "address": "Кадошкинский район, точка #134"
  },
  {
    "name": "Гастроном «Заря» Кад-135",
    "lat": 54.04168,
    "lon": 43.53894,
    "time_window_start": "09:00",
    "time_window_end": "18:00",
    "category": "D",
    "city": "Кадошкинский",
    "district": "Кадошкинский район",
    "address": "Кадошкинский район, точка #135"
  },
  {
    "name": "Продукты «Маяк» Кад-136",
    "lat": 54.028515,
    "lon": 43.532355,
    "time_window_start": "09:00",
    "time_window_end": "12:00",
    "category": "A",
    "city": "Кадошкинский",
    "district": "Кадошкинский район",
    "address": "Кадошкинский район, точка #136"
  },
  {
    "name": "Торговый павильон «Победа» Кад-137",
    "lat": 54.024732,
    "lon": 43.55209,
    "time_window_start": "09:00",
    "time_window_end": "18:00",
    "category": "D",
    "city": "Кадошкинский",
    "district": "Кадошкинский район",
    "address": "Кадошкинский район, точка #137"
  },
  {
    "name": "Торговый павильон «Полёт» Кад-138",
    "lat": 54.025023,
    "lon": 43.513673,
    "time_window_start": "09:00",
    "time_window_end": "12:00",
    "category": "A",
    "city": "Кадошкинский",
    "district": "Кадошкинский район",
    "address": "Кадошкинский район, точка #138"
  },
  {
    "name": "Киоск «Ромашка» Кад-139",
    "lat": 54.002726,
    "lon": 43.548598,
    "time_window_start": "09:00",
    "time_window_end": "15:00",
    "category": "B",
    "city": "Кадошкинский",
    "district": "Кадошкинский район",
    "address": "Кадошкинский район, точка #139"
  },
  {
    "name": "Супермаркет «Ромашка» Кад-140",
    "lat": 54.020434,
    "lon": 43.562106,
    "time_window_start": "09:00",
    "time_window_end": "15:00",
    "category": "B",
    "city": "Кадошкинский",
    "district": "Кадошкинский район",
    "address": "Кадошкинский район, точка #140"
  },
  {
    "name": "Торговая точка «Колос» Ков-141",
    "lat": 53.916354,
    "lon": 43.957499,
    "time_window_start": "09:00",
    "time_window_end": "18:00",
    "category": "C",
    "city": "Ковылкинский",
    "district": "Ковылкинский район",
    "address": "Ковылкинский район, точка #141"
  },
  {
    "name": "Киоск «Маяк» Ков-142",
    "lat": 53.893021,
    "lon": 43.953552,
    "time_window_start": "09:00",
    "time_window_end": "12:00",
    "category": "A",
    "city": "Ковылкинский",
    "district": "Ковылкинский район",
    "address": "Ковылкинский район, точка #142"
  },
  {
    "name": "Торговый павильон «Уют» Ков-143",
    "lat": 53.882187,
    "lon": 43.90422,
    "time_window_start": "09:00",
    "time_window_end": "12:00",
    "category": "A",
    "city": "Ковылкинский",
    "district": "Ковылкинский район",
    "address": "Ковылкинский район, точка #143"
  },
  {
    "name": "Продукты «Нива» Ков-144",
    "lat": 53.904522,
    "lon": 43.905813,
    "time_window_start": "09:00",
    "time_window_end": "15:00",
    "category": "B",
    "city": "Ковылкинский",
    "district": "Ковылкинский район",
    "address": "Ковылкинский район, точка #144"
  },
  {
    "name": "Продукты «Север» Ков-145",
    "lat": 53.897421,
    "lon": 43.881802,
    "time_window_start": "09:00",
    "time_window_end": "18:00",
    "category": "D",
    "city": "Ковылкинский",
    "district": "Ковылкинский район",
    "address": "Ковылкинский район, точка #145"
  },
  {
    "name": "Торговая точка «Рябина» Ков-146",
    "lat": 53.926069,
    "lon": 43.941548,
    "time_window_start": "09:00",
    "time_window_end": "18:00",
    "category": "C",
    "city": "Ковылкинский",
    "district": "Ковылкинский район",
    "address": "Ковылкинский район, точка #146"
  },
  {
    "name": "Киоск «Колос» Ков-147",
    "lat": 53.898225,
    "lon": 43.954803,
    "time_window_start": "09:00",
    "time_window_end": "15:00",
    "category": "B",
    "city": "Ковылкинский",
    "district": "Ковылкинский район",
    "address": "Ковылкинский район, точка #147"
  },
  {
    "name": "Гастроном «Горизонт» Ков-148",
    "lat": 53.887757,
    "lon": 43.912907,
    "time_window_start": "09:00",
    "time_window_end": "18:00",
    "category": "D",
    "city": "Ковылкинский",
    "district": "Ковылкинский район",
    "address": "Ковылкинский район, точка #148"
  },
  {
    "name": "Продукты «Ромашка» Ков-149",
    "lat": 53.894031,
    "lon": 43.946306,
    "time_window_start": "09:00",
    "time_window_end": "15:00",
    "category": "B",
    "city": "Ковылкинский",
    "district": "Ковылкинский район",
    "address": "Ковылкинский район, точка #149"
  },
  {
    "name": "Торговая точка «Берёзка» Ков-150",
    "lat": 53.907826,
    "lon": 43.944214,
    "time_window_start": "09:00",
    "time_window_end": "18:00",
    "category": "D",
    "city": "Ковылкинский",
    "district": "Ковылкинский район",
    "address": "Ковылкинский район, точка #150"
  },
  {
    "name": "Продуктовый «Родник» Коч-151",
    "lat": 54.063278,
    "lon": 45.531421,
    "time_window_start": "09:00",
    "time_window_end": "12:00",
    "category": "A",
    "city": "Кочкуровский",
    "district": "Кочкуровский район",
    "address": "Кочкуровский район, точка #151"
  },
  {
    "name": "Торговый павильон «Центральный» Коч-152",
    "lat": 54.044763,
    "lon": 45.597178,
    "time_window_start": "09:00",
    "time_window_end": "18:00",
    "category": "C",
    "city": "Кочкуровский",
    "district": "Кочкуровский район",
    "address": "Кочкуровский район, точка #152"
  },
  {
    "name": "Торговый павильон «Лидер» Коч-153",
    "lat": 54.063971,
    "lon": 45.567123,
    "time_window_start": "09:00",
    "time_window_end": "15:00",
    "category": "B",
    "city": "Кочкуровский",
    "district": "Кочкуровский район",
    "address": "Кочкуровский район, точка #153"
  },
  {
    "name": "Продукты «Мордовия» Коч-154",
    "lat": 54.065831,
    "lon": 45.598403,
    "time_window_start": "09:00",
    "time_window_end": "18:00",
    "category": "D",
    "city": "Кочкуровский",
    "district": "Кочкуровский район",
    "address": "Кочкуровский район, точка #154"
  },
  {
    "name": "Продукты «Заря» Коч-155",
    "lat": 54.027436,
    "lon": 45.551701,
    "time_window_start": "09:00",
    "time_window_end": "15:00",
    "category": "B",
    "city": "Кочкуровский",
    "district": "Кочкуровский район",
    "address": "Кочкуровский район, точка #155"
  },
  {
    "name": "Магазин «Ромашка» Коч-156",
    "lat": 54.05719,
    "lon": 45.598992,
    "time_window_start": "09:00",
    "time_window_end": "18:00",
    "category": "C",
    "city": "Кочкуровский",
    "district": "Кочкуровский район",
    "address": "Кочкуровский район, точка #156"
  },
  {
    "name": "Супермаркет «Рябина» Коч-157",
    "lat": 54.024038,
    "lon": 45.577229,
    "time_window_start": "09:00",
    "time_window_end": "18:00",
    "category": "D",
    "city": "Кочкуровский",
    "district": "Кочкуровский район",
    "address": "Кочкуровский район, точка #157"
  },
  {
    "name": "Магазин «Центральный» Коч-158",
    "lat": 54.033224,
    "lon": 45.55598,
    "time_window_start": "09:00",
    "time_window_end": "15:00",
    "category": "B",
    "city": "Кочкуровский",
    "district": "Кочкуровский район",
    "address": "Кочкуровский район, точка #158"
  },
  {
    "name": "Продуктовый «Волга» Коч-159",
    "lat": 54.040364,
    "lon": 45.56416,
    "time_window_start": "09:00",
    "time_window_end": "18:00",
    "category": "D",
    "city": "Кочкуровский",
    "district": "Кочкуровский район",
    "address": "Кочкуровский район, точка #159"
  },
  {
    "name": "Гастроном «Юбилейный» Коч-160",
    "lat": 54.06982,
    "lon": 45.602091,
    "time_window_start": "09:00",
    "time_window_end": "12:00",
    "category": "A",
    "city": "Кочкуровский",
    "district": "Кочкуровский район",
    "address": "Кочкуровский район, точка #160"
  },
  {
    "name": "Торговая точка «Победа» Кра-161",
    "lat": 54.417687,
    "lon": 43.740803,
    "time_window_start": "09:00",
    "time_window_end": "15:00",
    "category": "B",
    "city": "Краснослободский",
    "district": "Краснослободский район",
    "address": "Краснослободский район, точка #161"
  },
  {
    "name": "Минимаркет «Родник» Кра-162",
    "lat": 54.412376,
    "lon": 43.758953,
    "time_window_start": "09:00",
    "time_window_end": "12:00",
    "category": "A",
    "city": "Краснослободский",
    "district": "Краснослободский район",
    "address": "Краснослободский район, точка #162"
  },
  {
    "name": "Магазин «Восток» Кра-163",
    "lat": 54.429038,
    "lon": 43.785799,
    "time_window_start": "09:00",
    "time_window_end": "12:00",
    "category": "A",
    "city": "Краснослободский",
    "district": "Краснослободский район",
    "address": "Краснослободский район, точка #163"
  },
  {
    "name": "Продуктовый «Перекрёсток» Кра-164",
    "lat": 54.403921,
    "lon": 43.759669,
    "time_window_start": "09:00",
    "time_window_end": "18:00",
    "category": "C",
    "city": "Краснослободский",
    "district": "Краснослободский район",
    "address": "Краснослободский район, точка #164"
  },
  {
    "name": "Продукты «Волга» Кра-165",
    "lat": 54.415526,
    "lon": 43.755464,
    "time_window_start": "09:00",
    "time_window_end": "15:00",
    "category": "B",
    "city": "Краснослободский",
    "district": "Краснослободский район",
    "address": "Краснослободский район, точка #165"
  },
  {
    "name": "Киоск «Радуга» Кра-166",
    "lat": 54.438895,
    "lon": 43.759282,
    "time_window_start": "09:00",
    "time_window_end": "18:00",
    "category": "D",
    "city": "Краснослободский",
    "district": "Краснослободский район",
    "address": "Краснослободский район, точка #166"
  },
  {
    "name": "Супермаркет «Нива» Кра-167",
    "lat": 54.426803,
    "lon": 43.816429,
    "time_window_start": "09:00",
    "time_window_end": "18:00",
    "category": "D",
    "city": "Краснослободский",
    "district": "Краснослободский район",
    "address": "Краснослободский район, точка #167"
  },
  {
    "name": "Продуктовый «Центральный» Кра-168",
    "lat": 54.426598,
    "lon": 43.794735,
    "time_window_start": "09:00",
    "time_window_end": "18:00",
    "category": "C",
    "city": "Краснослободский",
    "district": "Краснослободский район",
    "address": "Краснослободский район, точка #168"
  },
  {
    "name": "Продуктовый «Юбилейный» Кра-169",
    "lat": 54.42264,
    "lon": 43.787721,
    "time_window_start": "09:00",
    "time_window_end": "15:00",
    "category": "B",
    "city": "Краснослободский",
    "district": "Краснослободский район",
    "address": "Краснослободский район, точка #169"
  },
  {
    "name": "Продуктовый «Север» Кра-170",
    "lat": 54.397787,
    "lon": 43.760066,
    "time_window_start": "09:00",
    "time_window_end": "18:00",
    "category": "D",
    "city": "Краснослободский",
    "district": "Краснослободский район",
    "address": "Краснослободский район, точка #170"
  },
  {
    "name": "Универмаг «Юбилейный» Лям-171",
    "lat": 54.251056,
    "lon": 45.602106,
    "time_window_start": "09:00",
    "time_window_end": "18:00",
    "category": "D",
    "city": "Лямбирский",
    "district": "Лямбирский район",
    "address": "Лямбирский район, точка #171"
  },
  {
    "name": "Киоск «Сокол» Лям-172",
    "lat": 54.246357,
    "lon": 45.637561,
    "time_window_start": "09:00",
    "time_window_end": "12:00",
    "category": "A",
    "city": "Лямбирский",
    "district": "Лямбирский район",
    "address": "Лямбирский район, точка #172"
  },
  {
    "name": "Продуктовый «Сокол» Лям-173",
    "lat": 54.261353,
    "lon": 45.624879,
    "time_window_start": "09:00",
    "time_window_end": "18:00",
    "category": "D",
    "city": "Лямбирский",
    "district": "Лямбирский район",
    "address": "Лямбирский район, точка #173"
  },
  {
    "name": "Продукты «Дружба» Лям-174",
    "lat": 54.235213,
    "lon": 45.615732,
    "time_window_start": "09:00",
    "time_window_end": "18:00",
    "category": "C",
    "city": "Лямбирский",
    "district": "Лямбирский район",
    "address": "Лямбирский район, точка #174"
  },
  {
    "name": "Минимаркет «Сокол» Лям-175",
    "lat": 54.253852,
    "lon": 45.606217,
    "time_window_start": "09:00",
    "time_window_end": "15:00",
    "category": "B",
    "city": "Лямбирский",
    "district": "Лямбирский район",
    "address": "Лямбирский район, точка #175"
  },
  {
    "name": "Супермаркет «Заря» Лям-176",
    "lat": 54.242009,
    "lon": 45.596924,
    "time_window_start": "09:00",
    "time_window_end": "15:00",
    "category": "B",
    "city": "Лямбирский",
    "district": "Лямбирский район",
    "address": "Лямбирский район, точка #176"
  },
  {
    "name": "Супермаркет «Семёновский» Лям-177",
    "lat": 54.227031,
    "lon": 45.648625,
    "time_window_start": "09:00",
    "time_window_end": "18:00",
    "category": "C",
    "city": "Лямбирский",
    "district": "Лямбирский район",
    "address": "Лямбирский район, точка #177"
  },
  {
    "name": "Продуктовый «Радуга» Лям-178",
    "lat": 54.229621,
    "lon": 45.600089,
    "time_window_start": "09:00",
    "time_window_end": "15:00",
    "category": "B",
    "city": "Лямбирский",
    "district": "Лямбирский район",
    "address": "Лямбирский район, точка #178"
  },
  {
    "name": "Торговый павильон «Перекрёсток» Лям-179",
    "lat": 54.245218,
    "lon": 45.583581,
    "time_window_start": "09:00",
    "time_window_end": "18:00",
    "category": "D",
    "city": "Лямбирский",
    "district": "Лямбирский район",
    "address": "Лямбирский район, точка #179"
  },
  {
    "name": "Универмаг «Мордовия» Лям-180",
    "lat": 54.227812,
    "lon": 45.653659,
    "time_window_start": "09:00",
    "time_window_end": "12:00",
    "category": "A",
    "city": "Лямбирский",
    "district": "Лямбирский район",
    "address": "Лямбирский район, точка #180"
  },
  {
    "name": "Продукты «Победа» Ром-181",
    "lat": 54.416037,
    "lon": 45.347699,
    "time_window_start": "09:00",
    "time_window_end": "12:00",
    "category": "A",
    "city": "Ромодановский",
    "district": "Ромодановский район",
    "address": "Ромодановский район, точка #181"
  },
  {
    "name": "Продуктовый «Нива» Ром-182",
    "lat": 54.447033,
    "lon": 45.380843,
    "time_window_start": "09:00",
    "time_window_end": "15:00",
    "category": "B",
    "city": "Ромодановский",
    "district": "Ромодановский район",
    "address": "Ромодановский район, точка #182"
  },
  {
    "name": "Продукты «Мордовия» Ром-183",
    "lat": 54.427685,
    "lon": 45.38734,
    "time_window_start": "09:00",
    "time_window_end": "18:00",
    "category": "D",
    "city": "Ромодановский",
    "district": "Ромодановский район",
    "address": "Ромодановский район, точка #183"
  },
  {
    "name": "Торговая точка «Маяк» Ром-184",
    "lat": 54.426857,
    "lon": 45.365244,
    "time_window_start": "09:00",
    "time_window_end": "18:00",
    "category": "D",
    "city": "Ромодановский",
    "district": "Ромодановский район",
    "address": "Ромодановский район, точка #184"
  },
  {
    "name": "Торговый павильон «Восток» Ром-185",
    "lat": 54.419788,
    "lon": 45.365193,
    "time_window_start": "09:00",
    "time_window_end": "15:00",
    "category": "B",
    "city": "Ромодановский",
    "district": "Ромодановский район",
    "address": "Ромодановский район, точка #185"
  },
  {
    "name": "Супермаркет «Север» Ром-186",
    "lat": 54.438242,
    "lon": 45.37031,
    "time_window_start": "09:00",
    "time_window_end": "15:00",
    "category": "B",
    "city": "Ромодановский",
    "district": "Ромодановский район",
    "address": "Ромодановский район, точка #186"
  },
  {
    "name": "Минимаркет «Заря» Ром-187",
    "lat": 54.414236,
    "lon": 45.334806,
    "time_window_start": "09:00",
    "time_window_end": "18:00",
    "category": "C",
    "city": "Ромодановский",
    "district": "Ромодановский район",
    "address": "Ромодановский район, точка #187"
  },
  {
    "name": "Продуктовый «Восток» Ром-188",
    "lat": 54.423214,
    "lon": 45.414327,
    "time_window_start": "09:00",
    "time_window_end": "12:00",
    "category": "A",
    "city": "Ромодановский",
    "district": "Ромодановский район",
    "address": "Ромодановский район, точка #188"
  },
  {
    "name": "Торговая точка «Север» Ром-189",
    "lat": 54.454503,
    "lon": 45.365744,
    "time_window_start": "09:00",
    "time_window_end": "18:00",
    "category": "D",
    "city": "Ромодановский",
    "district": "Ромодановский район",
    "address": "Ромодановский район, точка #189"
  },
  {
    "name": "Киоск «Дружба» Ром-190",
    "lat": 54.415066,
    "lon": 45.394042,
    "time_window_start": "09:00",
    "time_window_end": "18:00",
    "category": "C",
    "city": "Ромодановский",
    "district": "Ромодановский район",
    "address": "Ромодановский район, точка #190"
  },
  {
    "name": "Киоск «Радуга» Руз-191",
    "lat": 54.06903,
    "lon": 44.918545,
    "time_window_start": "09:00",
    "time_window_end": "18:00",
    "category": "C",
    "city": "Рузаевский",
    "district": "Рузаевский район",
    "address": "Рузаевский район, точка #191"
  },
  {
    "name": "Торговый павильон «Заря» Руз-192",
    "lat": 54.068251,
    "lon": 44.977898,
    "time_window_start": "09:00",
    "time_window_end": "18:00",
    "category": "D",
    "city": "Рузаевский",
    "district": "Рузаевский район",
    "address": "Рузаевский район, точка #192"
  },
  {
    "name": "Торговый павильон «Рябина» Руз-193",
    "lat": 54.04196,
    "lon": 44.943332,
    "time_window_start": "09:00",
    "time_window_end": "12:00",
    "category": "A",
    "city": "Рузаевский",
    "district": "Рузаевский район",
    "address": "Рузаевский район, точка #193"
  },
  {
    "name": "Торговая точка «Маяк» Руз-194",
    "lat": 54.049051,
    "lon": 44.979964,
    "time_window_start": "09:00",
    "time_window_end": "18:00",
    "category": "D",
    "city": "Рузаевский",
    "district": "Рузаевский район",
    "address": "Рузаевский район, точка #194"
  },
  {
    "name": "Гастроном «Перекрёсток» Руз-195",
    "lat": 54.047205,
    "lon": 44.967094,
    "time_window_start": "09:00",
    "time_window_end": "18:00",
    "category": "D",
    "city": "Рузаевский",
    "district": "Рузаевский район",
    "address": "Рузаевский район, точка #195"
  },
  {
    "name": "Гастроном «Рябина» Руз-196",
    "lat": 54.041974,
    "lon": 44.956389,
    "time_window_start": "09:00",
    "time_window_end": "15:00",
    "category": "B",
    "city": "Рузаевский",
    "district": "Рузаевский район",
    "address": "Рузаевский район, точка #196"
  },
  {
    "name": "Минимаркет «Заря» Руз-197",
    "lat": 54.064073,
    "lon": 44.907838,
    "time_window_start": "09:00",
    "time_window_end": "18:00",
    "category": "C",
    "city": "Рузаевский",
    "district": "Рузаевский район",
    "address": "Рузаевский район, точка #197"
  },
  {
    "name": "Киоск «Берёзка» Руз-198",
    "lat": 54.075624,
    "lon": 44.98423,
    "time_window_start": "09:00",
    "time_window_end": "15:00",
    "category": "B",
    "city": "Рузаевский",
    "district": "Рузаевский район",
    "address": "Рузаевский район, точка #198"
  },
  {
    "name": "Продукты «Мордовия» Руз-199",
    "lat": 54.074732,
    "lon": 44.921483,
    "time_window_start": "09:00",
    "time_window_end": "12:00",
    "category": "A",
    "city": "Рузаевский",
    "district": "Рузаевский район",
    "address": "Рузаевский район, точка #199"
  },
  {
    "name": "Минимаркет «Восток» Руз-200",
    "lat": 54.038113,
    "lon": 44.960927,
    "time_window_start": "09:00",
    "time_window_end": "15:00",
    "category": "B",
    "city": "Рузаевский",
    "district": "Рузаевский район",
    "address": "Рузаевский район, точка #200"
  },
  {
    "name": "Торговый павильон «Рябина» Ста-201",
    "lat": 54.364957,
    "lon": 44.22375,
    "time_window_start": "09:00",
    "time_window_end": "18:00",
    "category": "D",
    "city": "Старошайговский",
    "district": "Старошайговский район",
    "address": "Старошайговский район, точка #201"
  },
  {
    "name": "Продукты «Нива» Ста-202",
    "lat": 54.331545,
    "lon": 44.225611,
    "time_window_start": "09:00",
    "time_window_end": "12:00",
    "category": "A",
    "city": "Старошайговский",
    "district": "Старошайговский район",
    "address": "Старошайговский район, точка #202"
  },
  {
    "name": "Продуктовый «Родник» Ста-203",
    "lat": 54.354655,
    "lon": 44.261662,
    "time_window_start": "09:00",
    "time_window_end": "15:00",
    "category": "B",
    "city": "Старошайговский",
    "district": "Старошайговский район",
    "address": "Старошайговский район, точка #203"
  },
  {
    "name": "Супермаркет «Полёт» Ста-204",
    "lat": 54.328626,
    "lon": 44.274152,
    "time_window_start": "09:00",
    "time_window_end": "15:00",
    "category": "B",
    "city": "Старошайговский",
    "district": "Старошайговский район",
    "address": "Старошайговский район, точка #204"
  },
  {
    "name": "Продукты «Семёновский» Ста-205",
    "lat": 54.364981,
    "lon": 44.231503,
    "time_window_start": "09:00",
    "time_window_end": "18:00",
    "category": "C",
    "city": "Старошайговский",
    "district": "Старошайговский район",
    "address": "Старошайговский район, точка #205"
  },
  {
    "name": "Магазин «Берёзка» Ста-206",
    "lat": 54.368496,
    "lon": 44.235971,
    "time_window_start": "09:00",
    "time_window_end": "18:00",
    "category": "D",
    "city": "Старошайговский",
    "district": "Старошайговский район",
    "address": "Старошайговский район, точка #206"
  },
  {
    "name": "Универмаг «Восток» Ста-207",
    "lat": 54.34351,
    "lon": 44.29785,
    "time_window_start": "09:00",
    "time_window_end": "18:00",
    "category": "C",
    "city": "Старошайговский",
    "district": "Старошайговский район",
    "address": "Старошайговский район, точка #207"
  },
  {
    "name": "Киоск «Радуга» Ста-208",
    "lat": 54.339885,
    "lon": 44.254557,
    "time_window_start": "09:00",
    "time_window_end": "18:00",
    "category": "D",
    "city": "Старошайговский",
    "district": "Старошайговский район",
    "address": "Старошайговский район, точка #208"
  },
  {
    "name": "Супермаркет «Юбилейный» Ста-209",
    "lat": 54.361593,
    "lon": 44.294174,
    "time_window_start": "09:00",
    "time_window_end": "12:00",
    "category": "A",
    "city": "Старошайговский",
    "district": "Старошайговский район",
    "address": "Старошайговский район, точка #209"
  },
  {
    "name": "Торговая точка «Заря» Ста-210",
    "lat": 54.331583,
    "lon": 44.228435,
    "time_window_start": "09:00",
    "time_window_end": "15:00",
    "category": "B",
    "city": "Старошайговский",
    "district": "Старошайговский район",
    "address": "Старошайговский район, точка #210"
  },
  {
    "name": "Продуктовый «Радуга» Тем-211",
    "lat": 54.610984,
    "lon": 43.208589,
    "time_window_start": "09:00",
    "time_window_end": "15:00",
    "category": "B",
    "city": "Темниковский",
    "district": "Темниковский район",
    "address": "Темниковский район, точка #211"
  },
  {
    "name": "Универмаг «Сокол» Тем-212",
    "lat": 54.653868,
    "lon": 43.214453,
    "time_window_start": "09:00",
    "time_window_end": "12:00",
    "category": "A",
    "city": "Темниковский",
    "district": "Темниковский район",
    "address": "Темниковский район, точка #212"
  },
  {
    "name": "Продуктовый «Север» Тем-213",
    "lat": 54.650364,
    "lon": 43.192964,
    "time_window_start": "09:00",
    "time_window_end": "12:00",
    "category": "A",
    "city": "Темниковский",
    "district": "Темниковский район",
    "address": "Темниковский район, точка #213"
  },
  {
    "name": "Гастроном «Заря» Тем-214",
    "lat": 54.643795,
    "lon": 43.239767,
    "time_window_start": "09:00",
    "time_window_end": "18:00",
    "category": "C",
    "city": "Темниковский",
    "district": "Темниковский район",
    "address": "Темниковский район, точка #214"
  },
  {
    "name": "Универмаг «Сокол» Тем-215",
    "lat": 54.629514,
    "lon": 43.209344,
    "time_window_start": "09:00",
    "time_window_end": "18:00",
    "category": "D",
    "city": "Темниковский",
    "district": "Темниковский район",
    "address": "Темниковский район, точка #215"
  },
  {
    "name": "Магазин «Радуга» Тем-216",
    "lat": 54.631394,
    "lon": 43.174878,
    "time_window_start": "09:00",
    "time_window_end": "18:00",
    "category": "C",
    "city": "Темниковский",
    "district": "Темниковский район",
    "address": "Темниковский район, точка #216"
  },
  {
    "name": "Магазин «Юбилейный» Тем-217",
    "lat": 54.652982,
    "lon": 43.200494,
    "time_window_start": "09:00",
    "time_window_end": "18:00",
    "category": "D",
    "city": "Темниковский",
    "district": "Темниковский район",
    "address": "Темниковский район, точка #217"
  },
  {
    "name": "Продуктовый «Полёт» Тем-218",
    "lat": 54.647602,
    "lon": 43.164027,
    "time_window_start": "09:00",
    "time_window_end": "15:00",
    "category": "B",
    "city": "Темниковский",
    "district": "Темниковский район",
    "address": "Темниковский район, точка #218"
  },
  {
    "name": "Универмаг «Родник» Тем-219",
    "lat": 54.617106,
    "lon": 43.172993,
    "time_window_start": "09:00",
    "time_window_end": "15:00",
    "category": "B",
    "city": "Темниковский",
    "district": "Темниковский район",
    "address": "Темниковский район, точка #219"
  },
  {
    "name": "Минимаркет «Победа» Тем-220",
    "lat": 54.620363,
    "lon": 43.173343,
    "time_window_start": "09:00",
    "time_window_end": "18:00",
    "category": "D",
    "city": "Темниковский",
    "district": "Темниковский район",
    "address": "Темниковский район, точка #220"
  },
  {
    "name": "Гастроном «Семёновский» Тен-221",
    "lat": 54.841731,
    "lon": 43.62753,
    "time_window_start": "09:00",
    "time_window_end": "18:00",
    "category": "D",
    "city": "Теньгушевский",
    "district": "Теньгушевский район",
    "address": "Теньгушевский район, точка #221"
  },
  {
    "name": "Универмаг «Дружба» Тен-222",
    "lat": 54.846754,
    "lon": 43.593518,
    "time_window_start": "09:00",
    "time_window_end": "18:00",
    "category": "D",
    "city": "Теньгушевский",
    "district": "Теньгушевский район",
    "address": "Теньгушевский район, точка #222"
  },
  {
    "name": "Минимаркет «Ромашка» Тен-223",
    "lat": 54.841299,
    "lon": 43.646917,
    "time_window_start": "09:00",
    "time_window_end": "18:00",
    "category": "C",
    "city": "Теньгушевский",
    "district": "Теньгушевский район",
    "address": "Теньгушевский район, точка #223"
  },
  {
    "name": "Продуктовый «Горизонт» Тен-224",
    "lat": 54.868267,
    "lon": 43.598584,
    "time_window_start": "09:00",
    "time_window_end": "15:00",
    "category": "B",
    "city": "Теньгушевский",
    "district": "Теньгушевский район",
    "address": "Теньгушевский район, точка #224"
  },
  {
    "name": "Продукты «Волга» Тен-225",
    "lat": 54.852427,
    "lon": 43.572727,
    "time_window_start": "09:00",
    "time_window_end": "18:00",
    "category": "D",
    "city": "Теньгушевский",
    "district": "Теньгушевский район",
    "address": "Теньгушевский район, точка #225"
  },
  {
    "name": "Гастроном «Нива» Тен-226",
    "lat": 54.853916,
    "lon": 43.610321,
    "time_window_start": "09:00",
    "time_window_end": "15:00",
    "category": "B",
    "city": "Теньгушевский",
    "district": "Теньгушевский район",
    "address": "Теньгушевский район, точка #226"
  },
  {
    "name": "Магазин «Ромашка» Тен-227",
    "lat": 54.848133,
    "lon": 43.586535,
    "time_window_start": "09:00",
    "time_window_end": "18:00",
    "category": "C",
    "city": "Теньгушевский",
    "district": "Теньгушевский район",
    "address": "Теньгушевский район, точка #227"
  },
  {
    "name": "Продуктовый «Сокол» Тен-228",
    "lat": 54.824996,
    "lon": 43.623637,
    "time_window_start": "09:00",
    "time_window_end": "15:00",
    "category": "B",
    "city": "Теньгушевский",
    "district": "Теньгушевский район",
    "address": "Теньгушевский район, точка #228"
  },
  {
    "name": "Универмаг «Мордовия» Тен-229",
    "lat": 54.833249,
    "lon": 43.591845,
    "time_window_start": "09:00",
    "time_window_end": "12:00",
    "category": "A",
    "city": "Теньгушевский",
    "district": "Теньгушевский район",
    "address": "Теньгушевский район, точка #229"
  },
  {
    "name": "Киоск «Нива» Тен-230",
    "lat": 54.822153,
    "lon": 43.620873,
    "time_window_start": "09:00",
    "time_window_end": "12:00",
    "category": "A",
    "city": "Теньгушевский",
    "district": "Теньгушевский район",
    "address": "Теньгушевский район, точка #230"
  },
  {
    "name": "Продукты «Мордовия» Тор-231",
    "lat": 54.093599,
    "lon": 43.094273,
    "time_window_start": "09:00",
    "time_window_end": "18:00",
    "category": "D",
    "city": "Торбеевский",
    "district": "Торбеевский район",
    "address": "Торбеевский район, точка #231"
  },
  {
    "name": "Минимаркет «Рябина» Тор-232",
    "lat": 54.094399,
    "lon": 43.082654,
    "time_window_start": "09:00",
    "time_window_end": "15:00",
    "category": "B",
    "city": "Торбеевский",
    "district": "Торбеевский район",
    "address": "Торбеевский район, точка #232"
  },
  {
    "name": "Торговый павильон «Восток» Тор-233",
    "lat": 54.079279,
    "lon": 43.064758,
    "time_window_start": "09:00",
    "time_window_end": "12:00",
    "category": "A",
    "city": "Торбеевский",
    "district": "Торбеевский район",
    "address": "Торбеевский район, точка #233"
  },
  {
    "name": "Гастроном «Победа» Тор-234",
    "lat": 54.084965,
    "lon": 43.057067,
    "time_window_start": "09:00",
    "time_window_end": "18:00",
    "category": "C",
    "city": "Торбеевский",
    "district": "Торбеевский район",
    "address": "Торбеевский район, точка #234"
  },
  {
    "name": "Гастроном «Ромашка» Тор-235",
    "lat": 54.079514,
    "lon": 43.09297,
    "time_window_start": "09:00",
    "time_window_end": "15:00",
    "category": "B",
    "city": "Торбеевский",
    "district": "Торбеевский район",
    "address": "Торбеевский район, точка #235"
  },
  {
    "name": "Продукты «Север» Тор-236",
    "lat": 54.084642,
    "lon": 43.098057,
    "time_window_start": "09:00",
    "time_window_end": "18:00",
    "category": "D",
    "city": "Торбеевский",
    "district": "Торбеевский район",
    "address": "Торбеевский район, точка #236"
  },
  {
    "name": "Супермаркет «Радуга» Тор-237",
    "lat": 54.104209,
    "lon": 43.05658,
    "time_window_start": "09:00",
    "time_window_end": "18:00",
    "category": "D",
    "city": "Торбеевский",
    "district": "Торбеевский район",
    "address": "Торбеевский район, точка #237"
  },
  {
    "name": "Универмаг «Перекрёсток» Тор-238",
    "lat": 54.101354,
    "lon": 43.075826,
    "time_window_start": "09:00",
    "time_window_end": "12:00",
    "category": "A",
    "city": "Торбеевский",
    "district": "Торбеевский район",
    "address": "Торбеевский район, точка #238"
  },
  {
    "name": "Супермаркет «Север» Тор-239",
    "lat": 54.094297,
    "lon": 43.11902,
    "time_window_start": "09:00",
    "time_window_end": "15:00",
    "category": "B",
    "city": "Торбеевский",
    "district": "Торбеевский район",
    "address": "Торбеевский район, точка #239"
  },
  {
    "name": "Киоск «Удача» Тор-240",
    "lat": 54.08993,
    "lon": 43.105558,
    "time_window_start": "09:00",
    "time_window_end": "18:00",
    "category": "C",
    "city": "Торбеевский",
    "district": "Торбеевский район",
    "address": "Торбеевский район, точка #240"
  },
  {
    "name": "Торговая точка «Берёзка» Чам-241",
    "lat": 54.238986,
    "lon": 46.256335,
    "time_window_start": "09:00",
    "time_window_end": "18:00",
    "category": "D",
    "city": "Чамзинский",
    "district": "Чамзинский район",
    "address": "Чамзинский район, точка #241"
  },
  {
    "name": "Киоск «Удача» Чам-242",
    "lat": 54.236718,
    "lon": 46.249505,
    "time_window_start": "09:00",
    "time_window_end": "18:00",
    "category": "D",
    "city": "Чамзинский",
    "district": "Чамзинский район",
    "address": "Чамзинский район, точка #242"
  },
  {
    "name": "Минимаркет «Нива» Чам-243",
    "lat": 54.24516,
    "lon": 46.286561,
    "time_window_start": "09:00",
    "time_window_end": "15:00",
    "category": "B",
    "city": "Чамзинский",
    "district": "Чамзинский район",
    "address": "Чамзинский район, точка #243"
  },
  {
    "name": "Магазин «Центральный» Чам-244",
    "lat": 54.237181,
    "lon": 46.309593,
    "time_window_start": "09:00",
    "time_window_end": "18:00",
    "category": "D",
    "city": "Чамзинский",
    "district": "Чамзинский район",
    "address": "Чамзинский район, точка #244"
  },
  {
    "name": "Торговая точка «Сокол» Чам-245",
    "lat": 54.231819,
    "lon": 46.28354,
    "time_window_start": "09:00",
    "time_window_end": "18:00",
    "category": "C",
    "city": "Чамзинский",
    "district": "Чамзинский район",
    "address": "Чамзинский район, точка #245"
  },
  {
    "name": "Магазин «Центральный» Чам-246",
    "lat": 54.238047,
    "lon": 46.312385,
    "time_window_start": "09:00",
    "time_window_end": "15:00",
    "category": "B",
    "city": "Чамзинский",
    "district": "Чамзинский район",
    "address": "Чамзинский район, точка #246"
  },
  {
    "name": "Супермаркет «Заря» Чам-247",
    "lat": 54.208035,
    "lon": 46.282502,
    "time_window_start": "09:00",
    "time_window_end": "12:00",
    "category": "A",
    "city": "Чамзинский",
    "district": "Чамзинский район",
    "address": "Чамзинский район, точка #247"
  },
  {
    "name": "Киоск «Мордовия» Чам-248",
    "lat": 54.219288,
    "lon": 46.312599,
    "time_window_start": "09:00",
    "time_window_end": "15:00",
    "category": "B",
    "city": "Чамзинский",
    "district": "Чамзинский район",
    "address": "Чамзинский район, точка #248"
  },
  {
    "name": "Киоск «Перекрёсток» Чам-249",
    "lat": 54.234231,
    "lon": 46.319591,
    "time_window_start": "09:00",
    "time_window_end": "18:00",
    "category": "C",
    "city": "Чамзинский",
    "district": "Чамзинский район",
    "address": "Чамзинский район, точка #249"
  },
  {
    "name": "Торговый павильон «Лидер» Чам-250",
    "lat": 54.250363,
    "lon": 46.267611,
    "time_window_start": "09:00",
    "time_window_end": "12:00",
    "category": "A",
    "city": "Чамзинский",
    "district": "Чамзинский район",
    "address": "Чамзинский район, точка #250"
  }
]